time,vehicle_id,location_x,location_y,location_z,velocity_x,velocity_y,velocity_z,acceleration_x,acceleration_y,acceleration_z,angular_velocity_x,angular_velocity_y,angular_velocity_z,rotation_roll,rotation_pitch,rotation_yaw,control_brake,control_throttle,control_steer
1707978033.563815,2074,77.5952377319336,-17.864240646362305,0.7624102830886841,2.0159613711712154e-07,-5.704001523554325e-06,-4.899998188018799,9.91666070149222e-07,-2.8058399038854986e-05,-9.79998779296875,0.0,0.0,0.0,0.0,92.02415466308594,-4.330811023712158,0.0,0.8500000238418579,0.027372492477297783
1707978033.563815,2071,141.24481201171875,62.46364212036133,0.2505001723766327,0.0,0.0,-4.899998188018799,0.0,0.0,-9.79998779296875,0.0,0.0,0.0,0.0,-0.147430419921875,0.0,0.0,0.8500000238418579,0.0
1707978033.563815,2068,149.2703857421875,-62.80484390258789,7.764390468597412,3.47329404348784e-07,-1.9969409549958073e-05,-4.899997234344482,1.7084862520277966e-06,-9.822797437664121e-05,-9.799978256225586,0.0,0.0,0.0,0.0,90.99644470214844,-8.150662422180176,0.0,0.8500000238418579,0.0006220098002813756
1707978033.563815,2067,170.6755828857422,84.3988037109375,0.43730729818344116,1.1371047332897621e-11,6.010419895119412e-08,-4.899998188018799,5.808344083479966e-11,3.0701295372637105e-07,-9.79998779296875,0.0,0.0,0.0,-1.3340479831924767e-08,-90.01083374023438,-0.3625805675983429,1.0,0.0,0.0
1707978033.563815,2066,12.904475212097168,14.872516632080078,0.2505002021789551,0.0,0.0,-4.899998188018799,0.0,0.0,-9.79998779296875,0.0,0.0,0.0,0.0,-44.2750358581543,0.0,0.0,0.8500000238418579,-0.13654230535030365
1707978033.563815,2065,117.68596649169922,207.23744201660156,1.9460653066635132,4.723889048818819e-07,-1.1790448617432503e-09,-4.899998188018799,2.3253949166246457e-06,-5.804000835496481e-09,-9.79998779296875,0.0,0.0,0.0,0.0,-0.1430053561925888,1.2747386693954468,0.0,0.8500000238418579,0.0
1707978033.563815,2063,51.240047454833984,133.8613739013672,0.25050032138824463,0.0,0.0,-4.899998188018799,0.0,0.0,-9.79998779296875,0.0,0.0,0.0,0.0,-0.8171995878219604,0.0,0.0,0.8500000238418579,0.0
1707978033.563815,2060,205.150146484375,6.0847649574279785,0.25050026178359985,0.0,0.0,-4.899998188018799,0.0,0.0,-9.79998779296875,0.0,0.0,0.0,0.0,0.855804443359375,0.0,0.0,0.8500000238418579,0.0
1707978033.563815,2059,17.13628578186035,207.48834228515625,0.25050032138824463,0.0,0.0,-4.899998188018799,0.0,0.0,-9.79998779296875,0.0,0.0,0.0,0.0,-0.1429443210363388,0.0,0.0,0.8500000238418579,0.0
1707978033.563815,2051,233.68663024902344,-3.8802614212036133,0.25050026178359985,0.0,0.0,-4.899998188018799,0.0,0.0,-9.79998779296875,0.0,0.0,0.0,0.0,135.5115966796875,0.0,0.0,0.8500000238418579,0.35765135288238525
1707978033.563815,2047,175.32525634765625,-5.862030029296875,0.2505001425743103,0.0,0.0,-4.899998188018799,0.0,0.0,-9.79998779296875,0.0,0.0,0.0,0.0,-179.1441650390625,0.0,0.0,0.8500000238418579,0.0
1707978033.563815,2042,170.67446899414062,78.5088119506836,0.40003272891044617,7.017311211277022e-12,3.723231856156417e-08,-4.899998188018799,3.5844518325722774e-11,1.9018315811081266e-07,-9.79998779296875,0.0,0.0,0.0,1.3340479831924767e-08,-90.01079559326172,-0.3625805675983429,1.0,0.0,0.030205033719539642
1707978033.563815,2004,5.500231742858887,133.2517852783203,0.25049999356269836,0.0,0.0,-4.899998188018799,0.0,0.0,-9.79998779296875,0.0,0.0,0.0,0.0,-90.36254119873047,0.0,0.0,0.8500000238418579,0.0
1707978033.563815,2002,17.109373092651367,196.98837280273438,0.2505004107952118,0.0,0.0,-4.899998188018799,0.0,0.0,-9.79998779296875,0.0,0.0,0.0,0.0,179.85707092285156,0.0,0.0,0.8500000238418579,0.004463762976229191
1707978033.563815,2001,-9.687517166137695,103.62728118896484,0.25050026178359985,0.0,0.0,-4.899998188018799,0.0,0.0,-9.79998779296875,0.0,0.0,0.0,0.0,89.63745880126953,0.0,0.0,0.8500000238418579,0.0
1707978033.563815,1999,-9.594377517700195,118.34699249267578,0.2505002021789551,0.0,0.0,-4.899998188018799,0.0,0.0,-9.79998779296875,0.0,0.0,0.0,0.0,89.63748931884766,0.0,0.0,0.8500000238418579,0.0
1707978033.563815,1998,123.68008422851562,-76.14057922363281,8.250500679016113,0.0,0.0,-4.899998188018799,0.0,0.0,-9.79998779296875,0.0,0.0,0.0,0.0,-178.49087524414062,0.0,0.0,0.8500000238418579,0.0
1707978033.563815,1996,15.34783935546875,17.37850570678711,0.25050026178359985,0.0,0.0,-4.899998188018799,0.0,0.0,-9.79998779296875,0.0,0.0,0.0,0.0,-44.2750358581543,0.0,0.0,0.8500000238418579,-0.1660034954547882
1707978033.563815,1993,141.55697631835938,-7.287879943847656,0.28288763761520386,-1.168701331266675e-07,3.5754169402935077e-08,-4.899998188018799,-5.777974934062513e-07,1.7676606489658298e-07,-9.79998779296875,0.0,0.0,0.0,6.670535679376144e-09,162.989501953125,0.6496943831443787,1.0,0.0,0.1527070701122284
1707978033.563815,1990,170.6763458251953,88.40880584716797,0.46268385648727417,7.043919700994161e-12,3.723220487472645e-08,-4.899998188018799,3.598042697117165e-11,1.9018258967662405e-07,-9.79998779296875,0.0,0.0,0.0,-1.3340479831924767e-08,-90.01083374023438,-0.3625805675983429,1.0,0.0,0.0
1707978033.563815,1989,83.45421600341797,-84.54890441894531,8.250499725341797,0.0,0.0,-4.899998188018799,0.0,0.0,-9.79998779296875,0.0,0.0,0.0,0.0,-87.97588348388672,0.0,0.0,0.8500000238418579,0.0
1707978033.563815,1987,49.62700271606445,-4.2392683029174805,0.2668590545654297,3.972091100479247e-09,5.933483565589981e-11,-4.899998188018799,3.4566749462783264e-08,5.163558469689633e-10,-9.79998779296875,0.0,0.0,0.0,-1.0422079865790579e-10,-179.1441650390625,-0.15539363026618958,0.0,0.8500000238418579,0.0
1707978033.563815,1986,-5.034220218658447,23.36831283569336,0.2505001723766327,0.0,0.0,-4.899998188018799,0.0,0.0,-9.79998779296875,0.0,0.0,0.0,0.0,11.521453857421875,0.0,1.0,0.0,-0.1827002763748169
1707978033.563815,1985,185.65565490722656,58.84938430786133,0.2505002021789551,0.0,0.0,-4.899998188018799,0.0,0.0,-9.79998779296875,0.0,0.0,0.0,0.0,179.85255432128906,0.0,1.0,0.0,-0.16751760244369507
1707978033.563815,1981,190.3235626220703,-5.637990474700928,0.25049999356269836,0.0,0.0,-4.899998188018799,0.0,0.0,-9.79998779296875,0.0,0.0,0.0,0.0,-179.1441650390625,0.0,0.0,0.8500000238418579,-0.22069348394870758
1707978033.563815,1980,42.68619918823242,207.42459106445312,0.34793567657470703,2.2407569133520155e-07,-5.592749041660738e-10,-4.899998188018799,1.1078133184128092e-06,-2.7650128853196065e-09,-9.79998779296875,0.0,0.0,0.0,5.2113969389866455e-11,-0.1430053561925888,0.6887698769569397,0.0,0.8500000238418579,0.0
1707978033.563815,1979,229.65823364257812,80.57331085205078,0.3334796726703644,-1.5535258635068772e-09,6.387625717252376e-08,-4.899998188018799,-7.766645104823056e-09,3.1934081334838993e-07,-9.79998779296875,0.0,0.0,0.0,2.668133092242897e-08,91.39320373535156,0.47237586975097656,0.0,0.8500000238418579,0.0
1707978033.563815,1978,0.43719810247421265,-19.542858123779297,0.2504999339580536,0.0,0.0,-4.899998188018799,0.0,0.0,-9.79998779296875,0.0,0.0,0.0,0.0,-177.2023162841797,0.0,0.0,0.8500000238418579,-0.1628374606370926
1707978033.563815,1973,49.50751495361328,3.7598392963409424,0.2668594419956207,4.013799959068365e-09,5.995701851668755e-11,-4.899998188018799,3.4929716008491596e-08,5.21770349148909e-10,-9.79998779296875,0.0,0.0,0.0,2.0844159731581158e-10,0.8558045625686646,0.15539363026618958,0.0,0.8500000238418579,0.0
1707978033.563815,1971,149.009521484375,-47.80711364746094,4.916520118713379,6.069945470699167e-07,-3.4897926525445655e-05,-4.899991512298584,2.9857460503990296e-06,-0.0001716594269964844,-9.799959182739258,0.0,0.0,0.0,-4.3506281599547947e-07,90.99646759033203,-11.125393867492676,0.0,0.8500000238418579,-0.00043982735951431096
1707978033.563815,1970,121.35586547851562,59.01479721069336,0.25050026178359985,0.0,0.0,-4.899998188018799,0.0,0.0,-9.79998779296875,0.0,0.0,0.0,0.0,179.85255432128906,0.0,0.0,0.8500000238418579,0.0
1707978033.563815,1967,-10.067159652709961,43.62849044799805,0.2504999339580536,0.0,0.0,-4.899998188018799,0.0,0.0,-9.79998779296875,0.0,0.0,0.0,0.0,89.63746643066406,0.0,0.0,0.8500000238418579,0.0
1707978033.563815,1966,232.4277801513672,110.64952850341797,0.7651073336601257,-1.5873478531602814e-08,6.526728384415037e-07,-4.899998188018799,-7.813915203769284e-08,3.2128625662153354e-06,-9.79998779296875,0.0,0.0,0.0,5.3372037456256294e-08,91.39319610595703,1.1732897758483887,0.0,0.8500000238418579,-0.00043982735951431096
1707978033.563815,1963,171.10694885253906,65.5106430053711,0.31960174441337585,-2.46501983269809e-08,2.984800673289101e-08,-4.899998188018799,-1.2591353026891738e-07,1.5246399698298774e-07,-9.79998779296875,0.0,0.0,0.0,1.3340479831924767e-08,129.5518341064453,0.3625873923301697,0.0,0.8500000238418579,-0.20642179250717163
1707978033.563815,1962,149.505859375,-2.747319221496582,0.2708001732826233,0.0,0.0,-4.899998188018799,0.0,0.0,-9.79998779296875,0.0,0.0,0.0,-5.2110309123332144e-11,-179.1441650390625,0.1134357750415802,0.0,0.8500000238418579,0.0
1707978033.563815,1961,132.65098571777344,193.20005798339844,2.279794454574585,4.77364380913059e-07,-1.1913356967596656e-09,-4.899998188018799,2.3498873815697152e-06,-5.864501773089614e-09,-9.79998779296875,0.0,0.0,0.0,0.0,179.85699462890625,-1.2747454643249512,0.0,0.8500000238418579,0.0
1707978033.563815,1960,175.1534881591797,5.6366868019104,0.2504999339580536,0.0,0.0,-4.899998188018799,0.0,0.0,-9.79998779296875,0.0,0.0,0.0,0.0,0.855804443359375,0.0,0.0,0.8500000238418579,0.0
1707978033.563815,1958,155.6647491455078,62.42654800415039,0.2504999339580536,0.0,0.0,-4.899998188018799,0.0,0.0,-9.79998779296875,0.0,0.0,0.0,0.0,-0.147430419921875,0.0,1.0,0.0,0.0
1707978033.563815,1957,244.22813415527344,57.31067657470703,0.2504999339580536,0.0,0.0,-4.899998188018799,0.0,0.0,-9.79998779296875,0.0,0.0,0.0,0.0,-88.60674285888672,0.0,0.0,0.8500000238418579,0.0
1707978033.563815,1956,231.67796325683594,140.47828674316406,1.3794419765472412,-2.20392184502316e-08,3.9960670505934104e-07,-4.899998188018799,-1.0849088027953258e-07,1.9671153950184816e-06,-9.79998779296875,0.0,0.0,0.0,5.3372037456256294e-08,93.15679168701172,1.1732897758483887,0.0,0.8500000238418579,0.08426383137702942
1707978033.563815,1955,25.436243057250977,-8.398239135742188,0.24798484146595,0.0,0.0,-4.899998188018799,0.0,0.0,-9.79998779296875,0.0,0.0,0.0,8.33764390861802e-10,-168.5074005126953,0.08978283405303955,0.0,0.8500000238418579,0.2572736144065857
1707978033.563815,1952,185.66464233398438,62.349369049072266,0.2505003809928894,0.0,0.0,-4.899998188018799,0.0,0.0,-9.79998779296875,0.0,0.0,0.0,0.0,-0.147430419921875,0.0,0.0,0.8500000238418579,0.0
1707978033.563815,1951,78.4620132446289,7.692740440368652,0.3455384075641632,3.971998729923598e-09,5.933575852878903e-11,-4.899998188018799,3.4565946549491855e-08,5.163638960858918e-10,-9.79998779296875,0.0,0.0,0.0,2.0844159731581158e-10,0.8558500409126282,0.15539363026618958,0.0,0.8500000238418579,0.0
1707978033.563815,1950,152.24813842773438,-32.748512268066406,2.1192409992218018,3.980323697305721e-07,-2.2884483769303188e-05,-4.899995803833008,1.9578885712689953e-06,-0.00011256690777372569,-9.799964904785156,0.0,0.0,0.0,0.0,-89.00354766845703,8.911442756652832,0.0,0.8500000238418579,0.0
1707978033.563815,1949,46.32558822631836,7.2126994132995605,0.25837036967277527,4.013799959068365e-09,5.995701851668755e-11,-4.899998188018799,3.4929716008491596e-08,5.21770349148909e-10,-9.79998779296875,0.0,0.0,0.0,2.0844159731581158e-10,0.8558045625686646,0.15539363026618958,0.0,0.8500000238418579,0.0
1707978033.563815,1948,-18.915319442749023,134.39743041992188,0.2505004107952118,0.0,0.0,-4.899998188018799,0.0,0.0,-9.79998779296875,0.0,0.0,0.0,0.0,-1.29681396484375,0.0,0.0,0.8500000238418579,0.005917276721447706
1707978033.563815,1945,245.3020782470703,13.15373706817627,0.2505001723766327,0.0,0.0,-4.899998188018799,0.0,0.0,-9.79998779296875,0.0,0.0,0.0,0.0,-88.60674285888672,0.0,0.0,0.8500000238418579,0.0
1707978033.563815,1944,105.56303405761719,-6.90410852432251,0.38068094849586487,0.0,0.0,-4.899998188018799,0.0,0.0,-9.79998779296875,0.0,0.0,0.0,0.0,-179.1441650390625,0.06339780986309052,0.0,0.8500000238418579,0.0
1707978033.563815,1943,42.660003662109375,196.92462158203125,0.34793567657470703,1.3880872984373127e-07,-3.464184217261135e-10,-4.899998188018799,6.862603640911402e-07,-1.7126677853696037e-09,-9.79998779296875,0.0,0.0,0.0,-5.2113969389866455e-11,179.85699462890625,-0.6887767314910889,0.0,0.8500000238418579,0.0
1707978033.563815,1942,228.92881774902344,110.5644302368164,0.765107274055481,-9.833033942641123e-09,4.0430668946100923e-07,-4.899998188018799,-4.840437384245888e-08,1.990252030736883e-06,-9.79998779296875,0.0,0.0,0.0,5.3372037456256294e-08,91.39319610595703,1.1732897758483887,0.0,0.8500000238418579,-0.00043982735951431096
1707978033.563815,1938,5.405322074890137,118.2520751953125,0.25049999356269836,0.0,0.0,-4.899998188018799,0.0,0.0,-9.79998779296875,0.0,0.0,0.0,0.0,-90.36254119873047,0.0,0.0,0.8500000238418579,0.0
1707978033.563815,1936,102.6860122680664,207.2748565673828,1.6123363971710205,4.723889048818819e-07,-1.1790448617432503e-09,-4.899998188018799,2.3253949166246457e-06,-5.804000835496481e-09,-9.79998779296875,0.0,0.0,0.0,0.0,-0.1430053561925888,1.2747386693954468,0.0,0.8500000238418579,0.0
1707978033.563815,1934,121.36486053466797,62.5147819519043,0.2504999339580536,0.0,0.0,-4.899998188018799,0.0,0.0,-9.79998779296875,0.0,0.0,0.0,0.0,-0.147430419921875,0.0,0.0,0.8500000238418579,0.0
1707978033.563815,1928,241.80311584472656,13.06864070892334,0.2504999339580536,0.0,0.0,-4.899998188018799,0.0,0.0,-9.79998779296875,0.0,0.0,0.0,0.0,-88.60674285888672,0.0,0.0,0.8500000238418579,-0.00043982735951431096
1707978033.563815,1927,-9.256938934326172,171.67591857910156,0.2505001723766327,0.0,0.0,-4.899998188018799,0.0,0.0,-9.79998779296875,0.0,0.0,0.0,0.0,89.63745880126953,0.0,0.0,0.8500000238418579,0.0
1707978033.563815,1920,2.096102237701416,148.4140625,0.25049999356269836,0.0,0.0,-4.899998188018799,0.0,0.0,-9.79998779296875,0.0,0.0,0.0,0.0,-90.36254119873047,0.0,0.0,0.8500000238418579,-0.07742653042078018
1707978033.563815,2036,149.6187286376953,-82.83180236816406,8.250499725341797,0.0,0.0,-4.899998188018799,0.0,0.0,-9.79998779296875,0.0,0.0,0.0,0.0,90.99650573730469,0.0,0.0,0.8500000238418579,-0.00043982735951431096
1707978033.563815,2031,1.432610034942627,43.555721282958984,0.2505001723766327,0.0,0.0,-4.899998188018799,0.0,0.0,-9.79998779296875,0.0,0.0,0.0,0.0,-90.36254119873047,0.0,0.0,0.8500000238418579,0.040647104382514954
1707978033.563815,2027,-0.35914236307144165,23.82530403137207,0.2505001723766327,0.0,0.0,-4.899998188018799,0.0,0.0,-9.79998779296875,0.0,0.0,0.0,0.0,-0.355499267578125,0.0,0.0,0.8500000238418579,-0.15200388431549072
1707978033.563815,2026,135.55967712402344,-6.456031322479248,0.3059922456741333,-7.665224011077498e-09,-1.1450260184453498e-10,-4.899998188018799,-6.6705887036278e-08,-9.964481462176877e-10,-9.79998779296875,0.0,0.0,0.0,0.0,-179.1441650390625,0.15540045499801636,0.0,0.8500000238418579,0.0
1707978033.563815,2025,220.3202362060547,-5.189913749694824,0.25050029158592224,0.0,0.0,-4.899998188018799,0.0,0.0,-9.79998779296875,0.0,0.0,0.0,0.0,-179.1441650390625,0.0,0.0,0.8500000238418579,0.0
1707978033.563815,2024,-9.205180168151855,179.8557586669922,0.2505004405975342,0.0,0.0,-4.899998188018799,0.0,0.0,-9.79998779296875,0.0,0.0,0.0,0.0,89.63745880126953,0.0,0.26956525444984436,0.0,0.0
1707978033.563815,2023,-13.509483337402344,130.08447265625,0.25050032138824463,0.0,0.0,-4.899998188018799,0.0,0.0,-9.79998779296875,0.0,0.0,0.0,0.0,151.58616638183594,0.0,0.0,0.8500000238418579,0.3887762129306793
1707978033.563815,2022,162.8046875,203.2952117919922,2.945915699005127,6.389395252881513e-07,-5.1733316297486454e-08,-4.899998188018799,3.1472065984416986e-06,-2.5482131604803726e-07,-9.79998779296875,0.0,0.0,0.0,0.0,-4.62899923324585,1.162962555885315,0.0,0.8500000238418579,-0.06017358973622322
1707978033.563815,2020,29.328886032104492,-4.6162261962890625,0.2380060851573944,-2.773876017769794e-09,-8.901879233746968e-11,-4.899998188018799,-2.773876062178715e-08,-8.901879233746968e-10,-9.79998779296875,0.0,0.0,0.0,0.0,-178.16189575195312,0.1451893299818039,0.0,0.8500000238418579,0.18960633873939514
1707978033.563815,2019,162.33828735351562,110.2138442993164,0.6115911602973938,-3.4763200318366216e-08,6.20188913558195e-08,-4.899998188018799,-1.7757081138825015e-07,3.167931765801768e-07,-9.79998779296875,0.0,0.0,0.0,0.0,119.27175903320312,0.3625805675983429,0.0,0.8500000238418579,0.12049659341573715
1707978033.563815,2018,108.59310913085938,-73.03682708740234,8.250500679016113,0.0,0.0,-4.899998188018799,0.0,0.0,-9.79998779296875,0.0,0.0,0.0,0.0,-178.49087524414062,0.0,0.0,0.8500000238418579,0.0
1707978033.563815,2015,15.00221061706543,-17.06732749938965,0.25050026178359985,0.0,0.0,-4.899998188018799,0.0,0.0,-9.79998779296875,0.0,0.0,0.0,0.0,-131.81019592285156,0.0,0.0,0.8500000238418579,0.1144663393497467
1707978033.563815,2014,102.67727661132812,203.77487182617188,1.6123363971710205,4.723889048818819e-07,-1.1790448617432503e-09,-4.899998188018799,2.3253949166246457e-06,-5.804000835496481e-09,-9.79998779296875,0.0,0.0,0.0,0.0,-0.1430053561925888,1.2747386693954468,0.0,0.8500000238418579,0.0
1707978033.563815,2013,64.45357513427734,7.483488082885742,0.30754148960113525,4.013799959068365e-09,5.995701851668755e-11,-4.899998188018799,3.4929716008491596e-08,5.21770349148909e-10,-9.79998779296875,0.0,0.0,0.0,2.0844159731581158e-10,0.8558045625686646,0.15539363026618958,0.0,0.8500000238418579,0.0
1707978033.563815,2010,3.9332451820373535,195.3607940673828,0.25050002336502075,0.0,0.0,-4.899998188018799,0.0,0.0,-9.79998779296875,0.0,0.0,0.0,0.0,-134.8937530517578,0.0,0.0,0.8500000238418579,0.4476902484893799
1707978033.563815,2009,82.74781799316406,-64.56138610839844,7.802728652954102,8.594352038926445e-07,-2.4317647330462933e-05,-4.899996757507324,4.227473255014047e-06,-0.00011961602285737172,-9.79997444152832,0.0,0.0,0.0,4.302859224480926e-07,-87.97589111328125,7.206573009490967,0.0,0.8500000238418579,0.0
1707978033.563815,2118,244.03001403808594,-78.4942855834961,0.25050026178359985,0.0,0.0,-4.899998188018799,0.0,0.0,-9.79998779296875,0.0,0.0,0.0,0.0,-88.60680389404297,0.0,0.0,0.8500000238418579,0.22069305181503296
1707978033.563815,2117,164.50418090820312,-2.523280143737793,0.25196409225463867,0.0,0.0,-4.899998188018799,0.0,0.0,-9.79998779296875,0.0,0.0,0.0,2.6055105989408744e-11,-179.1441650390625,0.030462641268968582,0.0,0.8500000238418579,0.0
1707978033.563815,2115,235.5345916748047,-17.09208869934082,0.2504999041557312,0.0,0.0,-4.899998188018799,0.0,0.0,-9.79998779296875,0.0,0.0,0.0,0.0,91.39325714111328,0.0,0.0,0.8500000238418579,0.0017593095544725657
1707978033.563815,2114,189.9560546875,190.04745483398438,2.915278196334839,-3.739631040389213e-07,1.425573969981997e-07,-4.899998188018799,-1.8408815094517195e-06,7.017570169409737e-07,-9.79998779296875,0.0,0.0,0.0,2.6686018728128147e-08,159.13279724121094,1.1732897758483887,0.0,0.8500000238418579,0.030092736706137657
1707978033.563815,2109,233.36656188964844,72.05094909667969,0.2776762843132019,-4.747647275316069e-10,1.9520077998436136e-08,-4.899998188018799,-2.543700805546223e-09,1.0458493449050366e-07,-9.79998779296875,0.0,0.0,0.0,0.0,91.39325714111328,0.2703252136707306,0.0,0.8500000238418579,0.0
1707978033.563815,2108,141.70069885253906,-75.66582489013672,8.250499725341797,0.0,0.0,-4.899998188018799,0.0,0.0,-9.79998779296875,0.0,0.0,0.0,0.0,-178.49087524414062,0.0,0.0,0.8500000238418579,0.00043982735951431096
1707978033.563815,2107,152.84011840820312,-10.93032455444336,0.18202728033065796,-1.312796371166769e-06,-2.2693282062391518e-06,-4.899998188018799,-6.458383268181933e-06,-1.1164101124450099e-05,-9.79998779296875,0.0,0.0,0.0,0.0,-120.04920196533203,2.1620280742645264,0.0,0.8500000238418579,0.37737783789634705
1707978033.563815,2098,211.99591064453125,173.62705993652344,2.3009438514709473,-3.155753347527934e-07,2.778606642550585e-07,-4.899998188018799,-1.5534601516264956e-06,1.36780488446675e-06,-9.79998779296875,0.0,0.0,0.0,0.0,138.63641357421875,1.1732897758483887,0.0,0.8500000238418579,0.11266688257455826
1707978033.563815,2097,46.54963302612305,-7.7856268882751465,0.25837039947509766,7.664748835622959e-09,1.14495524172753e-10,-4.899998188018799,6.670175878298323e-08,9.96386528839821e-10,-9.79998779296875,0.0,0.0,0.0,-1.0422079865790579e-10,-179.1441650390625,-0.15539363026618958,0.0,0.8500000238418579,0.0
1707978033.563815,2096,-18.548505783081055,15.074146270751953,0.2505003809928894,0.0,0.0,-4.899998188018799,0.0,0.0,-9.79998779296875,0.0,0.0,0.0,0.0,49.662933349609375,0.0,0.0,0.8500000238418579,0.04678380861878395
1707978033.563815,2092,106.35591888427734,59.05338668823242,0.2505004405975342,0.0,0.0,-4.899998188018799,0.0,0.0,-9.79998779296875,0.0,0.0,0.0,0.0,179.85255432128906,0.0,0.0,0.8500000238418579,0.00043982735951431096
1707978033.563815,2091,164.55645751953125,-6.022889137268066,0.2519644498825073,0.0,0.0,-4.899998188018799,0.0,0.0,-9.79998779296875,0.0,0.0,0.0,2.6055105989408744e-11,-179.1441650390625,0.030462641268968582,0.0,0.8500000238418579,0.0
1707978033.563815,2090,91.46095275878906,54.53481674194336,0.2505002021789551,0.0,0.0,-4.899998188018799,0.0,0.0,-9.79998779296875,0.0,0.0,0.0,0.0,-145.50579833984375,0.0,0.0,0.8500000238418579,0.0
1707978033.563815,2088,243.30059814453125,-48.50314712524414,0.25050002336502075,0.0,0.0,-4.899998188018799,0.0,0.0,-9.79998779296875,0.0,0.0,0.0,0.0,-88.60680389404297,0.0,0.0,0.8500000238418579,0.0
1707978033.563815,2087,246.799560546875,-48.41804885864258,0.2505004107952118,0.0,0.0,-4.899998188018799,0.0,0.0,-9.79998779296875,0.0,0.0,0.0,0.0,-88.60680389404297,0.0,0.0,0.8500000238418579,0.0
1707978033.563815,2086,105.33900451660156,8.094218254089355,0.3806810677051544,0.0,0.0,-4.899998188018799,0.0,0.0,-9.79998779296875,0.0,0.0,0.0,0.0,0.8558043241500854,-0.06341830641031265,0.0,0.8500000238418579,0.0
1707978033.563815,2085,94.07816314697266,-73.4192123413086,8.250499725341797,0.0,0.0,-4.899998188018799,0.0,0.0,-9.79998779296875,0.0,0.0,0.0,0.0,-178.49087524414062,0.0,0.0,0.8500000238418579,-0.06303079426288605
1707978033.563815,2084,4.932539463043213,43.53357696533203,0.2505002021789551,0.0,0.0,-4.899998188018799,0.0,0.0,-9.79998779296875,0.0,0.0,0.0,0.0,-90.36254119873047,0.0,0.0,0.8500000238418579,0.039394982159137726
1707978033.563815,2083,-3.9917714595794678,134.26316833496094,0.2504999339580536,0.0,0.0,-4.899998188018799,0.0,0.0,-9.79998779296875,0.0,0.0,0.0,0.0,1.1607942581176758,0.0,0.0,0.8500000238418579,0.0
1707978033.563815,2080,190.0995330810547,9.360336303710938,0.25050026178359985,0.0,0.0,-4.899998188018799,0.0,0.0,-9.79998779296875,0.0,0.0,0.0,0.0,0.855804443359375,0.0,0.0,0.8500000238418579,0.0
1707978033.563815,2079,231.0995635986328,21.310829162597656,0.2505002021789551,0.0,0.0,-4.899998188018799,0.0,0.0,-9.79998779296875,0.0,0.0,0.0,0.0,91.39320373535156,0.0,0.0,0.8500000238418579,0.0
1707978033.563815,2077,218.93466186523438,181.5076446533203,2.3009438514709473,-3.035289921626827e-07,2.6725416546469205e-07,-4.899998188018799,-1.4941605286367121e-06,1.3155930673747207e-06,-9.79998779296875,0.0,0.0,0.0,-2.6686018728128147e-08,-41.36359786987305,-1.1732761859893799,0.0,0.8500000238418579,-0.05616655945777893
1707978033.6138847,2074,77.5952377319336,-17.864240646362305,0.7624102830886841,2.0159613711712154e-07,-5.704001523554325e-06,-4.899998188018799,9.91666070149222e-07,-2.8058399038854986e-05,-9.79998779296875,0.0,0.0,0.0,0.0,92.02415466308594,-4.330811023712158,0.0,0.8500000238418579,0.027372492477297783
1707978033.6138847,2071,141.24481201171875,62.46364212036133,0.2505001723766327,0.0,0.0,-4.899998188018799,0.0,0.0,-9.79998779296875,0.0,0.0,0.0,0.0,-0.147430419921875,0.0,0.0,0.8500000238418579,0.0
1707978033.6138847,2068,149.2703857421875,-62.80484390258789,7.764390468597412,3.47329404348784e-07,-1.9969409549958073e-05,-4.899997234344482,1.7084862520277966e-06,-9.822797437664121e-05,-9.799978256225586,0.0,0.0,0.0,0.0,90.99644470214844,-8.150662422180176,0.0,0.8500000238418579,0.0006220098002813756
1707978033.6138847,2067,170.6755828857422,84.3988037109375,0.43730729818344116,1.1371047332897621e-11,6.010419895119412e-08,-4.899998188018799,5.808344083479966e-11,3.0701295372637105e-07,-9.79998779296875,0.0,0.0,0.0,-1.3340479831924767e-08,-90.01083374023438,-0.3625805675983429,1.0,0.0,0.0
1707978033.6138847,2066,12.904630661010742,14.872368812561035,-0.039218634366989136,-0.01739286445081234,-0.013751269318163395,0.13610389828681946,-0.1739286482334137,-0.1375126987695694,50.36102294921875,1.050519347190857,-4.645924091339111,-0.0119742751121521,-0.07305908203125,-44.27516174316406,0.04471724480390549,0.0,0.8500000238418579,-0.13654230535030365
1707978033.6138847,2065,117.6898422241211,207.23751831054688,1.6354305744171143,0.009405465796589851,-0.02464655041694641,0.1530274897813797,0.09404993802309036,-0.24646548926830292,50.53025817871094,8.447043418884277,-6.9518961906433105,0.1894051432609558,-0.0846557468175888,-0.1428527534008026,1.3438942432403564,0.0,0.8500000238418579,0.0
1707978033.6138847,2063,51.24087142944336,133.8615264892578,-0.08698871731758118,-0.021890921518206596,-0.06491099298000336,0.12379251420497894,-0.21890921890735626,-0.649109959602356,50.23790740966797,8.93950080871582,-7.039977550506592,0.004244115203619003,-0.0903930515050888,-0.817352294921875,0.13211634755134583,0.0,0.8500000238418579,0.0
1707978033.6138847,2060,205.15098571777344,6.084934711456299,-0.08698852360248566,-0.019986795261502266,-0.0655234307050705,0.12379395961761475,-0.19986794888973236,-0.6552343368530273,50.23792266845703,9.141458511352539,-6.776085376739502,0.004244595300406218,-0.0903930589556694,0.8556398153305054,0.1321231722831726,0.6651421785354614,0.0,0.0
1707978033.6138847,2059,17.137107849121094,207.48849487304688,-0.08698859810829163,-0.02112586610019207,-0.06516480445861816,0.12379350513219833,-0.211258664727211,-0.6516480445861816,50.237918853759766,9.021928787231445,-6.934396743774414,0.004244375508278608,-0.09039306640625,-0.1430969089269638,0.1321231722831726,0.0,0.8500000238418579,0.0
1707978033.6138847,2051,233.6864776611328,-3.880276918411255,-0.08559436351060867,0.0049066124483942986,0.005144354421645403,0.06658156961202621,0.049066126346588135,0.051443543285131454,49.66579818725586,-0.9973918795585632,2.995354175567627,0.016877003014087677,-0.028076171875,135.51181030273438,0.014377547428011894,0.0,0.8500000238418579,0.35765135288238525
1707978033.6138847,2047,175.32501220703125,-5.8619914054870605,-0.0392194539308548,0.0012156077427789569,0.024687113240361214,0.13607746362686157,0.012156077660620213,0.24687112867832184,50.360755920410156,-4.022737979888916,2.5361788272857666,-0.004352229181677103,-0.0728759765625,-179.1441650390625,0.044771887362003326,0.0,0.8500000238418579,0.0
1707978033.6138847,2042,170.67446899414062,78.51080322265625,-0.0084811020642519,-1.98904235730879e-05,0.018220756202936172,-2.904719829559326,-0.00019890430849045515,0.18220719695091248,19.952783584594727,0.12896959483623505,0.0001126623319578357,-6.345900328597054e-05,2.9936061764601618e-05,-90.01083374023438,-0.37057188153266907,1.0,0.0,0.030205033719539642
1707978033.6138847,2004,5.5003204345703125,133.2513885498047,-0.060255810618400574,-0.025224877521395683,-0.012845184653997421,0.15163858234882355,-0.25224876403808594,-0.1284518539905548,50.51636505126953,-7.037067413330078,-8.607661247253418,0.0009835029486566782,-0.086517333984375,-90.3625717163086,0.06982502341270447,0.0,0.8500000238418579,0.0
1707978033.6138847,2002,17.108549118041992,196.98822021484375,-0.08698863536119461,0.021047301590442657,0.065079465508461,0.1237899586558342,0.21047301590442657,0.6507946252822876,50.23788070678711,-9.025769233703613,6.93484354019165,0.004678445868194103,-0.0904235914349556,179.85687255859375,0.1321231722831726,0.0,0.8500000238418579,0.004463762976229191
1707978033.6138847,2001,-9.68747329711914,103.62751770019531,-0.03921928256750107,0.024655664339661598,-0.0017402494559064507,0.13607729971408844,0.24655663967132568,-0.017402494326233864,50.360755920410156,2.6211490631103516,3.967859983444214,-0.004351989831775427,-0.0728759765625,89.6374282836914,0.044771887362003326,0.0,0.8500000238418579,0.0
1707978033.6138847,1999,-9.594401359558105,118.34707641601562,-0.08559425175189972,0.01628882996737957,-0.0010276000248268247,0.0665881335735321,0.162888303399086,-0.010276000015437603,49.665863037109375,1.4536970853805542,2.7427964210510254,0.00027959293220192194,-0.02752685733139515,89.63748168945312,0.014363886788487434,0.0,0.8500000238418579,0.0
1707978033.6138847,1998,123.67984008789062,-76.14054870605469,7.960781097412109,0.000934008858166635,0.02470345050096512,0.13608260452747345,0.009340088814496994,0.24703450500965118,50.360809326171875,-4.051484107971191,2.4902658462524414,-0.004352908581495285,-0.0728759616613388,-178.49087524414062,0.044771887362003326,0.0,0.8500000238418579,0.0
1707978033.6138847,1996,15.347929000854492,17.37848472595215,-0.08559425175189972,-0.011179626919329166,-0.008854069747030735,0.06659253686666489,-0.11179626733064651,-0.0885406956076622,49.66590881347656,0.9780388474464417,-2.9577553272247314,-0.0047417436726391315,-0.02764892578125,-44.27506637573242,0.01435022708028555,0.0,0.8500000238418579,-0.1660034954547882
1707978033.6138847,1993,141.56192016601562,-7.289336204528809,-0.049787480384111404,-0.0032750468235462904,0.01673823781311512,0.056300751864910126,-0.032749298959970474,0.16738203167915344,49.56298828125,-5.3001275062561035,5.29922342300415,-0.01023047510534525,-0.1492309272289276,162.99075317382812,-0.25594767928123474,1.0,0.0,0.1527070701122284
1707978033.6138847,1990,170.6763458251953,88.41081237792969,0.054169461131095886,3.270220304329996e-06,0.018216563388705254,-2.9047231674194336,3.2702133466955274e-05,0.182165265083313,19.95275115966797,0.12868347764015198,-4.721802906715311e-05,-3.297325747553259e-05,4.802576540896553e-07,-90.0108642578125,-0.37053772807121277,1.0,0.0,0.0
1707978033.6138847,1989,83.4547348022461,-84.55130004882812,7.911418437957764,-0.12187465280294418,-0.01147267036139965,0.21408197283744812,-1.218746542930603,-0.1147267073392868,51.14080047607422,3.723623037338257,-17.71615982055664,0.10870680212974548,-0.1541747897863388,-87.974365234375,0.1823318898677826,0.0,0.8500000238418579,0.0
1707978033.6138847,1987,49.62592315673828,-4.239214897155762,-0.05989181250333786,-0.00743431132286787,0.016211818903684616,0.15182624757289886,-0.07434315234422684,0.16211819648742676,50.518245697021484,-2.421922445297241,3.775909423828125,-5.9906098613282666e-05,-0.0236511193215847,-179.1441650390625,0.03811245411634445,0.0,0.8500000238418579,0.0
1707978033.6138847,1986,-5.034220218658447,23.36831283569336,-0.1580640822649002,-1.4659559122165433e-09,-1.1407312427991201e-07,-2.904860496520996,-1.4659558900120828e-08,-1.1407312285882654e-06,19.951377868652344,2.807675627991557e-05,-9.435498213861138e-06,-5.000803682264632e-08,0.0,11.521453857421875,0.0,1.0,0.0,-0.1827002763748169
1707978033.6138847,1985,185.6554718017578,58.84935760498047,-0.03921812027692795,0.00311864516697824,0.020540181547403336,0.13612216711044312,0.031186452135443687,0.20540180802345276,50.3612060546875,-3.9944634437561035,2.6018941402435303,-0.013561884872615337,-0.0731506273150444,179.85238647460938,0.04468992352485657,1.0,0.0,-0.16751760244369507
1707978033.6138847,1981,190.32321166992188,-5.638160228729248,-0.06025733798742294,-0.010253324173390865,0.015510435216128826,0.15161511301994324,-0.1025332435965538,0.1551043540239334,50.51613235473633,-8.530567169189453,6.8661065101623535,-0.010335049591958523,-0.08435054123401642,-179.14430236816406,0.06992064416408539,0.0,0.8500000238418579,-0.22069348394870758
1707978033.6138847,1980,42.687950134277344,207.4244842529297,0.059701766818761826,-0.0034498118329793215,-0.02692282386124134,0.14058879017829895,-0.0345003567636013,-0.2692282497882843,50.40586853027344,4.099471092224121,-2.6966488361358643,0.03789569437503815,-0.075836181640625,-0.1427917331457138,0.7518057227134705,0.0,0.8500000238418579,0.0
1707978033.6138847,1979,229.65814208984375,80.57538604736328,0.023855380713939667,0.024636801332235336,0.012302345596253872,0.15736719965934753,0.24636803567409515,0.12302280962467194,50.57365417480469,6.928357124328613,8.740262985229492,0.07745521515607834,-0.08642580360174179,91.39371490478516,0.5976961851119995,0.0,0.8500000238418579,0.0
1707978033.6138847,1978,0.43681761622428894,-19.543001174926758,-0.06025714799761772,-0.0115684038028121,0.019695213064551353,0.15161946415901184,-0.11568403989076614,0.19695213437080383,50.51617431640625,-8.859543800354004,6.566321849822998,-0.010046827606856823,-0.0853576585650444,-177.2024383544922,0.06990697979927063,0.0,0.8500000238418579,-0.1628374606370926
1707978033.6138847,1973,49.5068244934082,3.759829521179199,-0.15037544071674347,0.0005360293434932828,7.18719184078509e-06,-2.959136486053467,0.005360253155231476,7.187131996033713e-05,19.40861701965332,-0.006951335817575455,0.47802096605300903,-5.7757864851737395e-05,-3.0517578125e-05,0.8558015823364258,0.06163562461733818,0.0,0.8500000238418579,0.0
1707978033.6138847,1971,149.00880432128906,-47.764530181884766,4.596627712249756,-0.006968348287045956,1.0832195281982422,-0.028677847236394882,-0.0696895569562912,10.832544326782227,48.713134765625,4.68864631652832,2.2315921783447266,-0.4782620966434479,-0.021361688151955605,90.99531555175781,-10.941340446472168,0.0,0.8500000238418579,-0.00043982735951431096
1707978033.6138847,1970,121.35586547851562,59.01479721069336,-0.15806403756141663,2.5498922973099525e-09,-2.3119179459740735e-08,-2.904860496520996,2.5498923861277945e-08,-2.3119179104469367e-07,19.951377868652344,5.403711838880554e-06,2.268276602990227e-06,-4.2981999903712875e-11,0.0,179.85255432128906,0.0,0.0,0.8500000238418579,0.0
1707978033.6138847,1967,-10.06724739074707,43.6288948059082,-0.06025588884949684,0.025224795565009117,0.012845207005739212,0.15163777768611908,0.25224795937538147,0.12845206260681152,50.516357421875,7.037073612213135,8.6076078414917,0.0009832083014771342,-0.0865173265337944,89.63744354248047,0.06982502341270447,0.0,0.8500000238418579,0.0
1707978033.6138847,1966,232.4277801513672,110.65215301513672,0.47649112343788147,0.028019526973366737,-0.003791309427469969,0.14001864194869995,0.2801954448223114,-0.03791962191462517,50.40016555786133,2.549450635910034,4.2183966636657715,0.0753222107887268,-0.07705681771039963,91.39346313476562,1.1773537397384644,0.0,0.8500000238418579,-0.00043982735951431096
1707978033.6138847,1963,171.10647583007812,65.50924682617188,-0.020884322002530098,-0.12428586930036545,-0.0749669000506401,0.09898017346858978,-1.2428584098815918,-0.7496693134307861,49.98978042602539,-8.17215633392334,-4.083937168121338,0.15759272873401642,0.08588487654924393,129.55453491210938,0.09264468401670456,1.0,0.0,-0.20642179250717163
1707978033.6138847,1962,149.50637817382812,-2.748006582260132,-0.145772784948349,-0.0003852467052638531,-0.00037680717650800943,-2.9549479484558105,-0.0038524670526385307,-0.0037680717650800943,19.450502395629883,-0.5787783265113831,-0.3579114079475403,0.000541878049261868,-0.1040649265050888,-179.1442108154297,0.044976793229579926,0.0,0.8500000238418579,0.0
1707978033.6138847,1961,132.65798950195312,193.20005798339844,1.8715678453445435,0.06400775909423828,-0.00016061328642535955,-2.902796983718872,0.6400728225708008,-0.0016061209607869387,19.97201156616211,-0.001128051895648241,-0.452051043510437,-0.00010479985940037295,8.73019416758325e-06,179.85684204101562,-1.3026126623153687,0.0,0.8500000238418579,0.0
1707978033.6138847,1960,175.1538848876953,5.636783123016357,-0.06025569885969162,0.013378696516156197,-0.024946315214037895,0.15163925290107727,0.13378696143627167,-0.24946315586566925,50.51637649536133,8.755329132080078,-6.852492332458496,0.0009837481193244457,-0.0865173265337944,0.855777382850647,0.06982502341270447,0.0,0.8500000238418579,0.0
1707978033.6138847,1958,155.66514587402344,62.4266357421875,-0.06025579199194908,0.012939841486513615,-0.025176450610160828,0.15163804590702057,0.1293984204530716,-0.2517645061016083,50.516361236572266,8.63399600982666,-7.004725456237793,0.0009832449723035097,-0.0865173265337944,-0.1474609524011612,0.06982502341270447,1.0,0.0,0.0
1707978033.6138847,1957,244.22799682617188,57.31050109863281,-0.05950937047600746,-0.025503356009721756,-0.009814982302486897,0.1901426613330841,-0.25503355264663696,-0.09814982116222382,50.90140914916992,-4.764583587646484,-2.9375483989715576,0.0014754895819351077,-0.013916016556322575,-88.61113739013672,0.04424596205353737,0.0,0.8500000238418579,0.0
1707978033.6138847,1956,231.67730712890625,140.48272705078125,1.0707290172576904,0.02333337999880314,0.006583050824701786,0.19939608871936798,0.233334019780159,0.06582651287317276,50.99394226074219,4.733864784240723,3.547097682952881,0.09380712360143661,-0.00421145698055625,93.1312255859375,1.3250019550323486,0.0,0.8500000238418579,0.08426383137702942
1707978033.6138847,1955,25.436681747436523,-8.398247718811035,-0.08561980724334717,-0.0028139709029346704,0.013400432653725147,0.06826053559780121,-0.028139708563685417,0.13400432467460632,49.682586669921875,-4.2907609939575195,1.1849550008773804,0.014400272630155087,-0.0396728478372097,-168.50735473632812,0.0201558880507946,0.0,0.8500000238418579,0.2572736144065857
1707978033.6138847,1952,185.6654815673828,62.34952926635742,-0.08698863536119461,-0.021130820736289024,-0.06516275554895401,0.1237933337688446,-0.21130821108818054,-0.6516275405883789,50.2379150390625,9.021350860595703,-6.935054779052734,0.004244408570230007,-0.09039306640625,-0.1475830078125,0.1321231722831726,0.0,0.8500000238418579,0.0
1707978033.6138847,1951,78.46111297607422,7.692727088928223,-0.06097427383065224,0.004796978551894426,7.142107642721385e-05,0.02600921504199505,0.047969743609428406,0.0007142102112993598,49.26007080078125,3.9669511318206787,-2.4163806438446045,0.05234750360250473,2.6295765565009788e-06,0.8558394908905029,0.0,0.0,0.8500000238418579,0.0
1707978033.6138847,1950,152.24778747558594,-32.728816986083984,1.7116914987564087,-0.006906590890139341,0.3970387578010559,-2.9215993881225586,-0.06906989216804504,3.970616340637207,19.783964157104492,-0.16130360960960388,-0.002621518447995186,0.0015688244020566344,-4.3209126943111187e-07,-89.00350952148438,8.901737213134766,0.0,0.8500000238418579,0.0
1707978033.6138847,1949,46.32479476928711,7.212686061859131,-0.15431015193462372,0.0008348799892701209,1.1544092558324337e-05,-2.9330623149871826,0.008348759263753891,0.00011544032895471901,19.66935920715332,-0.010682170279324055,0.7372781038284302,-5.2804760343860835e-05,-3.0517569030052982e-05,0.8557997345924377,0.044983621686697006,0.0,0.8500000238418579,0.0
1707978033.6138847,1948,-18.915319442749023,134.39743041992188,-0.1580640822649002,7.109698385576735e-10,-1.632513679794556e-08,-2.904859781265259,7.10969860762134e-09,-1.632513715321693e-07,19.951383590698242,3.897277565556578e-06,8.36166634599067e-07,4.695225458428709e-11,0.0,-1.29681396484375,0.0,0.0,0.8500000238418579,0.005917276721447706
1707978033.6138847,1945,245.3020782470703,13.15373706817627,-0.15806423127651215,1.7645325200987827e-08,2.3251239156252268e-08,-2.9048595428466797,1.7645325556259195e-07,2.3251239156252268e-07,19.951385498046875,-2.0055926142958924e-05,2.3229215457831742e-06,-3.719221111642135e-11,0.0,-88.60674285888672,0.0,0.0,0.8500000238418579,0.0
1707978033.6138847,1944,105.5633773803711,-6.9041032791137695,-0.04124263674020767,0.0005503981956280768,8.328182957484387e-06,0.003244323655962944,0.005503981839865446,8.328183321282268e-05,49.03242492675781,-1.1994295120239258,0.5331156849861145,-0.0059394072741270065,2.2359344598044117e-07,-179.1441650390625,0.0,0.0,0.8500000238418579,0.0
1707978033.6138847,1943,42.66371536254883,196.92462158203125,-0.05983920767903328,0.03292352706193924,-0.0001485611719544977,-2.900172472000122,0.32923388481140137,-0.001485608285292983,19.99825668334961,0.01463727094233036,-0.2728002071380615,0.005954727530479431,0.000604572705924511,179.85740661621094,-0.7159404158592224,0.0,0.8500000238418579,0.0
1707978033.6138847,1942,228.9286651611328,110.57039642333984,0.3570014536380768,-0.0013683289289474487,0.05624355748295784,-2.9012434482574463,-0.013683191500604153,0.5624315142631531,19.987546920776367,0.27270442247390747,0.002465569879859686,0.0032116423826664686,0.00015942247409839183,91.39354705810547,1.1765273809432983,0.0,0.8500000238418579,-0.00043982735951431096
1707978033.6138847,1938,5.4054107666015625,118.25167846679688,-0.06025579199194908,-0.025224991142749786,-0.01284518651664257,0.15163861215114594,-0.25224989652633667,-0.128451868891716,50.51636505126953,-7.037069320678711,-8.607721328735352,0.000983536709100008,-0.086517333984375,-90.3625717163086,0.06982502341270447,0.0,0.8500000238418579,0.0
1707978033.6138847,1936,102.68975067138672,207.2747039794922,1.3022857904434204,0.004947873763740063,-0.0246273186057806,0.18975669145584106,0.04947401583194733,-0.24627315998077393,50.897552490234375,2.6605515480041504,-4.8881988525390625,0.06019401177763939,-0.02673339657485485,-0.142822265625,1.3234174251556396,0.0,0.8500000238418579,0.0
1707978033.6138847,1934,121.3652572631836,62.51487350463867,-0.060255907475948334,0.012939798645675182,-0.02517636865377426,0.15163810551166534,0.12939798831939697,-0.2517637014389038,50.516361236572266,8.633963584899902,-7.004701614379883,0.0009831307688727975,-0.0865173265337944,-0.1474609524011612,0.06982502341270447,0.0,0.8500000238418579,0.0
1707978033.6138847,1928,241.80322265625,13.068235397338867,-0.060255907475948334,-0.024831287562847137,-0.013605200685560703,0.15163803100585938,-0.24831287562847137,-0.13605201244354248,50.516361236572266,-6.770075798034668,-8.8193998336792,0.0009365329169668257,-0.0865173190832138,-88.60677337646484,0.06982502341270447,0.0,0.8500000238418579,-0.00043982735951431096
1707978033.6138847,1927,-9.256962776184082,171.67599487304688,-0.08559417724609375,0.01628865860402584,-0.001027622609399259,0.06658875942230225,0.1628865897655487,-0.010276226326823235,49.665870666503906,1.4537172317504883,2.7428674697875977,0.000279596250038594,-0.0275268517434597,89.63743591308594,0.014363886788487434,0.0,0.8500000238418579,0.0
1707978033.6138847,1920,2.0961897373199463,148.41366577148438,-0.060256462544202805,-0.02496028132736683,-0.011601388454437256,0.15162725746631622,-0.249602809548378,-0.11601388454437256,50.51625061035156,-7.041469573974609,-8.59276294708252,-0.005796789191663265,-0.0863952487707138,-90.36263275146484,0.06986600160598755,0.0,0.030813440680503845,-0.07742653042078018
1707978033.6138847,2036,149.61854553222656,-82.83099365234375,7.913011074066162,0.06558723747730255,-0.019835228100419044,0.12380509823560715,0.6558723449707031,-0.19835227727890015,50.238033294677734,6.754193305969238,9.158644676208496,0.004202406853437424,-0.0903930515050888,90.99634552001953,0.1321231722831726,0.0,0.8500000238418579,-0.00043982735951431096
1707978033.6138847,2031,1.4325809478759766,43.555477142333984,-0.03921903669834137,-0.023825647309422493,0.00133600109256804,0.13608765602111816,-0.23825646936893463,0.013360010460019112,50.360862731933594,-2.620288133621216,-3.970773696899414,-0.0023311988916248083,-0.0729370042681694,-90.36254119873047,0.04475822672247887,0.0,0.8500000238418579,0.040647104382514954
1707978033.6138847,2027,-0.35897886753082275,23.82530403137207,-0.039021968841552734,-0.0019932379946112633,-0.015690410509705544,0.1474686712026596,-0.019932379946112633,-0.15690410137176514,50.474666595458984,2.758716344833374,-1.6249847412109375,-0.006178705953061581,-0.060821522027254105,-0.3556518256664276,0.034840792417526245,0.0,0.8500000238418579,-0.15200388431549072
1707978033.6138847,2026,135.56028747558594,-6.4560227394104,-0.08761890232563019,0.02995861880481243,0.00044836531742475927,0.09080718457698822,0.2995862662792206,0.004483654163777828,49.908050537109375,-16.644643783569336,8.959308624267578,-0.09978310763835907,0.0,-179.1442108154297,0.0629948303103447,0.0,0.8500000238418579,0.0
1707978033.6138847,2025,220.31939697265625,-5.190083980560303,-0.0869886726140976,0.019986676052212715,0.06552338600158691,0.12379129230976105,0.19986675679683685,0.6552338600158691,50.237892150878906,-9.141481399536133,6.776046276092529,0.004245168995112181,-0.0903930738568306,-179.1443328857422,0.1321231722831726,0.0,0.8500000238418579,0.0
1707978033.6138847,2024,-9.205180168151855,179.8557586669922,-0.1580638438463211,-3.0842066678360425e-08,-1.0678776085626396e-08,-2.904860258102417,-3.0842068099445896e-07,-1.0678775907990712e-07,19.951379776000977,9.488713658356573e-06,-6.76497529639164e-06,-8.8420361310515e-11,0.0,89.63745880126953,0.0,0.699999988079071,0.0,0.0
1707978033.6138847,2023,-13.509483337402344,130.08447265625,-0.15806391835212708,1.8988178140944e-08,3.301478557204973e-08,-2.904860496520996,1.8988177430401265e-07,3.301478557204973e-07,19.951377868652344,-1.071610222425079e-05,1.1490244105516467e-05,5.981279826983155e-08,0.0,151.58616638183594,0.0,0.0,0.8500000238418579,0.3887762129306793
1707978033.6138847,2022,162.8074951171875,203.29519653320312,2.6554274559020996,-0.006466214545071125,-0.022075597196817398,0.13412778079509735,-0.06466853618621826,-0.2207554578781128,50.34125900268555,3.471524238586426,-2.9142768383026123,0.062192317098379135,-0.0780639573931694,-4.625429630279541,1.2122150659561157,0.0,0.8500000238418579,-0.06017358973622322
1707978033.6138847,2020,29.32962989807129,-4.616184711456299,-0.059428900480270386,-0.0015462961746379733,0.0018020599381998181,0.11014138907194138,-0.015462934039533138,0.018020600080490112,50.10139465332031,-1.0399034023284912,0.5943683981895447,0.0035333912819623947,-0.02429199405014515,-178.16201782226562,0.013667208142578602,0.0,0.8500000238418579,0.18960633873939514
1707978033.6138847,2019,162.33755493164062,110.21530151367188,0.27478986978530884,0.055580973625183105,0.0208379365503788,0.15980751812458038,0.5558100938796997,0.20837874710559845,50.598060607910156,0.7710350751876831,5.545069217681885,0.04542914777994156,-0.034820556640625,119.27207946777344,0.4887409806251526,0.0,0.8500000238418579,0.12049659341573715
1707978033.6138847,2018,108.59286499023438,-73.03678894042969,7.960781097412109,0.000933996110688895,0.02470383793115616,0.13608253002166748,0.009339961223304272,0.24703837931156158,50.360809326171875,-4.051474094390869,2.490266799926758,-0.004352493677288294,-0.0728759616613388,-178.49087524414062,0.044771887362003326,0.0,0.8500000238418579,0.0
1707978033.6138847,2015,15.002077102661133,-17.067508697509766,-0.0386420413851738,-0.011517265811562538,0.01064988598227501,0.14870058000087738,-0.11517265439033508,0.10649885982275009,50.48698806762695,-3.090454339981079,-1.0134713649749756,0.002618328435346484,-0.0649108737707138,-131.81040954589844,0.03813977539539337,0.0,0.8500000238418579,0.1144663393497467
1707978033.6138847,2014,102.68115234375,203.77496337890625,1.3016858100891113,0.009402175433933735,-0.024637708440423012,0.15299823880195618,0.09401702880859375,-0.24637706577777863,50.52996826171875,8.44372272491455,-6.949760437011719,0.1893303394317627,-0.08462522178888321,-0.1428527534008026,1.343887448310852,0.0,0.8500000238418579,0.0
1707978033.6138847,2013,64.45292663574219,7.4834771156311035,-0.13141345977783203,0.0012762368423864245,1.7515054423711263e-05,-3.2091004848480225,0.01276232860982418,0.00017514993669465184,16.908977508544922,-0.016507981345057487,1.1174581050872803,-4.698838893091306e-05,-3.0517578125e-05,0.8558010458946228,0.06520780920982361,0.0,0.8500000238418579,0.0
1707978033.6138847,2010,3.933204174041748,195.3602294921875,-0.06025405600667,-0.006352835800498724,-0.01490788534283638,0.1517135351896286,-0.06352835893630981,-0.1490788459777832,50.51711654663086,-10.617752075195312,-0.7779865860939026,0.08702455461025238,-0.08044431358575821,-134.89291381835938,0.06972939521074295,0.0,0.8500000238418579,0.4476902484893799
1707978033.6138847,2009,82.7472915649414,-64.53316497802734,7.486121654510498,-0.08110842853784561,0.7477214932441711,0.08034811168909073,-0.8110928535461426,7.4774580001831055,49.80344772338867,-12.003215789794922,-20.274396896362305,2.7392985820770264,-0.17822304368019104,-87.97039031982422,7.178186893463135,0.0,0.8500000238418579,0.0
1707978033.6138847,2118,244.03013610839844,-78.49454498291016,-0.0392155647277832,-0.01496293768286705,-0.00021961644233670086,0.1361839473247528,-0.1496293842792511,-0.002196164336055517,50.361820220947266,-2.4870126247406006,-4.080655574798584,0.008146567270159721,-0.0735778659582138,-88.6065673828125,0.04458064213395119,0.0,0.8500000238418579,0.22069305181503296
1707978033.6138847,2117,164.50405883789062,-2.5231404304504395,-0.05966022238135338,-0.00941115990281105,0.024548083543777466,0.18582111597061157,-0.0941115990281105,0.24548083543777466,50.858192443847656,-2.746109962463379,4.71986722946167,0.0006463974714279175,-0.0267639122903347,-179.1441650390625,0.047599583864212036,0.0,0.8500000238418579,0.0
1707978033.6138847,2115,235.53448486328125,-17.09168243408203,-0.060255832970142365,0.024771230295300484,0.01363957580178976,0.15163859724998474,0.24771229922771454,0.13639575242996216,50.51636505126953,6.769968509674072,8.81844711303711,0.001171956886537373,-0.0865173265337944,91.39324951171875,0.06982502341270447,0.0,0.8500000238418579,0.0017593095544725657
1707978033.6138847,2114,189.95249938964844,190.04891967773438,2.604881763458252,0.0036565628834068775,0.024738864973187447,0.19331523776054382,0.036569368094205856,0.24738721549510956,50.93313217163086,-0.9675970077514648,5.6071391105651855,0.06216225400567055,-0.014892594888806343,159.13339233398438,1.296164870262146,0.0,0.8500000238418579,0.030092736706137657
1707978033.6138847,2109,233.366455078125,72.04857635498047,-0.02567998878657818,-0.03268289566040039,-0.11019137501716614,0.1743054986000061,-0.3268289566040039,-1.1019139289855957,50.74303436279297,3.007615327835083,-6.1768670082092285,0.07483908534049988,0.11779940128326416,91.39114379882812,0.2022487223148346,0.0,0.8500000238418579,0.0
1707978033.6138847,2108,141.70164489746094,-75.66851043701172,7.94698429107666,0.013314040377736092,-0.14502476155757904,0.48695433139801025,0.13314040005207062,-1.4502476453781128,53.86952209472656,28.51974105834961,-4.39292573928833,-0.04836253821849823,0.2805597484111786,-178.48658752441406,-0.13360531628131866,0.0,0.8500000238418579,0.00043982735951431096
1707978033.6138847,2107,152.84278869628906,-10.923489570617676,-0.06046150252223015,-0.055395759642124176,-0.0830390527844429,0.14289265871047974,-0.55394446849823,-0.8303678035736084,50.42890930175781,-2.7839620113372803,-2.8345577716827393,0.9700281023979187,-0.1531982123851776,-120.08165740966797,0.20213261246681213,0.0,0.8500000238418579,0.37737783789634705
1707978033.6138847,2098,211.9925079345703,173.62969970703125,1.9657827615737915,0.01067395880818367,0.0092305364087224,0.06905660033226013,0.1067427471280098,0.0923025906085968,49.690547943115234,-1.5887556076049805,2.7510898113250732,0.07768869400024414,0.010061061941087246,138.6104278564453,1.379411220550537,0.0,0.8500000238418579,0.11266688257455826
1707978033.6138847,2097,46.54795837402344,-7.785738468170166,-0.08696842193603516,0.013383761048316956,0.04113076627254486,0.1056964248418808,0.1338375359773636,0.4113076627254486,50.05694580078125,-5.585959434509277,4.540160179138184,0.0024841176345944405,-0.05517575889825821,-179.14430236816406,0.10923521220684052,0.0,0.8500000238418579,0.0
1707978033.6138847,2096,-18.548107147216797,15.074898719787598,-0.08698894083499908,0.0355057492852211,-0.05662570521235466,0.12377645075321198,0.3550574779510498,-0.5662570595741272,50.23774719238281,11.160116195678711,2.4570577144622803,0.008608212694525719,-0.0909729078412056,49.6628532409668,0.1321573257446289,0.0,0.8500000238418579,0.04678380861878395
1707978033.6138847,2092,106.3551025390625,59.053226470947266,-0.08698879182338715,0.021122869104146957,0.06515468657016754,0.12379190325737,0.21122869849205017,0.651546835899353,50.23789978027344,-9.021660804748535,6.935038089752197,0.004287557676434517,-0.0903930813074112,179.85240173339844,0.1321231722831726,0.0,0.8500000238418579,0.00043982735951431096
1707978033.6138847,2091,164.55661010742188,-6.022886753082275,-0.15732650458812714,-0.00011113007349194959,-1.3597260704045766e-06,-2.9093735218048096,-0.0011113007785752416,-1.359726047667209e-05,19.906246185302734,0.0014162553707137704,-0.09934516996145248,-8.57458871905692e-06,6.513775629990448e-12,-179.1441650390625,0.01178207527846098,0.0,0.8500000238418579,0.0
1707978033.6138847,2090,91.46077728271484,54.53475570678711,-0.03902273252606392,-0.00960632972419262,0.015653887763619423,0.14745208621025085,-0.09606330096721649,0.15653887391090393,50.47450256347656,-3.1841585636138916,-0.23487645387649536,-0.0011288962559774518,-0.0605773851275444,-145.50579833984375,0.034888602793216705,0.0,0.8500000238418579,0.0
1707978033.6138847,2088,243.3007049560547,-48.50355529785156,-0.06025588884949684,-0.024819400161504745,-0.013612067326903343,0.15163956582546234,-0.24819400906562805,-0.13612067699432373,50.51637649536133,-6.7700700759887695,-8.819199562072754,0.0009832674404606223,-0.0865173265337944,-88.60680389404297,0.06982502341270447,0.0,0.8500000238418579,0.0
1707978033.6138847,2087,246.79974365234375,-48.41887283325195,-0.0869886726140976,-0.06570737808942795,0.019371023401618004,0.12379112094640732,-0.6570737957954407,0.19371023774147034,50.237892150878906,-6.689931392669678,-9.204519271850586,0.004245108924806118,-0.0903930515050888,-88.60699462890625,0.1321231722831726,0.0,0.8500000238418579,0.0
1707978033.6138847,2086,105.33926391601562,8.094222068786621,-0.08599387854337692,-0.00045915035298094153,-6.8192525759513956e-06,-2.7793309688568115,-0.004591503646224737,-6.819252303102985e-05,21.20667266845703,0.010866831988096237,-0.7346092462539673,-5.150186098035192e-06,7.38141139322579e-08,0.8558036088943481,-0.021904416382312775,0.0,0.8500000238418579,0.0
1707978033.6138847,2085,94.07736206054688,-73.41939544677734,7.913012504577637,0.020343918353319168,0.06560608744621277,0.12382806837558746,0.20343917608261108,0.6560608744621277,50.23826217651367,-9.205974578857422,6.665808200836182,-0.0023076499346643686,-0.09020993858575821,-178.49111938476562,0.13206852972507477,0.0,0.8500000238418579,-0.06303079426288605
1707978033.6138847,2084,4.932568073272705,43.53348922729492,-0.08559413999319077,-0.015865538269281387,0.0007929101120680571,0.06658735126256943,-0.15865537524223328,0.007929101586341858,49.665855407714844,-1.4540488719940186,-2.7455568313598633,0.0013383543118834496,-0.027557373046875,-90.362548828125,0.014363886788487434,0.0,0.8500000238418579,0.039394982159137726
1707978033.6138847,2083,-3.991365909576416,134.2632598876953,-0.060256004333496094,0.01351125817745924,-0.024874433875083923,0.15163901448249817,0.13511258363723755,-0.24874433875083923,50.51637268066406,8.791679382324219,-6.80577278137207,0.000983324134722352,-0.0865173190832138,1.1607677936553955,0.06982502341270447,0.0,0.8500000238418579,0.0
1707978033.6138847,2080,190.10037231445312,9.360506057739258,-0.08698852360248566,-0.019986651837825775,-0.06552328914403915,0.12379343062639236,-0.19986651837825775,-0.6552329063415527,50.237918853759766,9.141504287719727,-6.776036262512207,0.00424498226493597,-0.0903930589556694,0.8556398153305054,0.1321231722831726,0.0,0.8500000238418579,0.0
1707978033.6138847,2079,231.09954833984375,21.310916900634766,-0.08559413999319077,0.01631271280348301,-0.0005280593759380281,0.06658904999494553,0.1631271243095398,-0.005280593875795603,49.665870666503906,1.368981122970581,2.7861478328704834,0.00027958021382801235,-0.02752685360610485,91.3931655883789,0.014363886788487434,0.0,0.8500000238418579,0.0
1707978033.6138847,2077,218.92982482910156,181.51165771484375,1.8924344778060913,-0.04489556699991226,0.0378117635846138,-2.89914608001709,-0.44895264506340027,0.3781149387359619,20.008522033691406,-0.30829697847366333,0.8709832429885864,-0.4859183728694916,0.029546422883868217,-41.41874313354492,-1.1715071201324463,0.0,0.8500000238418579,-0.05616655945777893
1707978033.6639595,2074,77.59597778320312,-17.871641159057617,0.45820456743240356,-0.17372886836528778,0.19976694881916046,0.23030638694763184,-1.7372907400131226,1.997726559638977,51.303043365478516,-7.1347527503967285,-42.89993667602539,5.033341884613037,0.0003667304408736527,92.01757049560547,-5.587155818939209,0.0,0.8500000238418579,0.027372492477297783
1707978033.6639595,2071,141.24490356445312,62.46366882324219,-0.08559448271989822,-0.0009664447861723602,-0.016292493790388107,0.0665881335735321,-0.009664447978138924,-0.16292494535446167,49.665863037109375,2.748234987258911,-1.443387746810913,0.000279568339465186,-0.02752685360610485,-0.147430419921875,0.014363886788487434,0.0,0.8500000238418579,0.0
1707978033.6639595,2068,149.2698974609375,-62.777889251708984,7.399388790130615,-0.01488351821899414,0.8296212553977966,-0.06017867848277092,-0.14883865416049957,8.296412467956543,48.39818572998047,7.6762919425964355,16.184843063354492,-2.2169487476348877,-9.135287837125361e-05,90.99720001220703,-7.835326194763184,0.0,0.8500000238418579,0.0006220098002813756
1707978033.6639595,2067,170.67556762695312,84.39948272705078,0.14777697622776031,-0.018220428377389908,3.3595783861528616e-06,0.14721153676509857,-0.18220427632331848,3.2994743378367275e-05,50.47209930419922,-1.6062959432601929,-2.7414512634277344,-0.01852327585220337,-0.060272227972745895,-90.01089477539062,-0.32773295044898987,1.0,0.0,0.0
1707978033.6639595,2066,12.904630661010742,14.872368812561035,-0.039218634366989136,-0.01739286445081234,-0.013751269318163395,0.13610389828681946,-0.1739286482334137,-0.1375126987695694,50.36102294921875,1.050519347190857,-4.645924091339111,-0.0119742751121521,-0.07305908203125,-44.27516174316406,0.04471724480390549,0.0,0.8500000238418579,-0.13654230535030365
1707978033.6639595,2065,117.6898422241211,207.23751831054688,1.6354305744171143,0.009405465796589851,-0.02464655041694641,0.1530274897813797,0.09404993802309036,-0.24646548926830292,50.53025817871094,8.447043418884277,-6.9518961906433105,0.1894051432609558,-0.0846557468175888,-0.1428527534008026,1.3438942432403564,0.0,0.8500000238418579,0.0
1707978033.6639595,2063,51.24087142944336,133.8615264892578,-0.08698871731758118,-0.021890921518206596,-0.06491099298000336,0.12379251420497894,-0.21890921890735626,-0.649109959602356,50.23790740966797,8.93950080871582,-7.039977550506592,0.004244115203619003,-0.0903930515050888,-0.817352294921875,0.13211634755134583,0.0,0.8500000238418579,0.0
1707978033.6639595,2060,205.15098571777344,6.084934711456299,-0.08698852360248566,-0.019986795261502266,-0.0655234307050705,0.12379395961761475,-0.19986794888973236,-0.6552343368530273,50.23792266845703,9.141458511352539,-6.776085376739502,0.004244595300406218,-0.0903930589556694,0.8556398153305054,0.1321231722831726,0.6651421785354614,0.0,0.0
1707978033.6639595,2059,17.137107849121094,207.48849487304688,-0.08698859810829163,-0.02112586610019207,-0.06516480445861816,0.12379350513219833,-0.211258664727211,-0.6516480445861816,50.237918853759766,9.021928787231445,-6.934396743774414,0.004244375508278608,-0.09039306640625,-0.1430969089269638,0.1321231722831726,0.0,0.8500000238418579,0.0
1707978033.6639595,2051,233.6864776611328,-3.880276918411255,-0.08559436351060867,0.0049066124483942986,0.005144354421645403,0.06658156961202621,0.049066126346588135,0.051443543285131454,49.66579818725586,-0.9973918795585632,2.995354175567627,0.016877003014087677,-0.028076171875,135.51181030273438,0.014377547428011894,0.0,0.8500000238418579,0.35765135288238525
